timestamp,stateEstimateZ.ax,stateEstimateZ.ay,stateEstimateZ.az,stateEstimateZ.quat,stateEstimateZ.rateRoll,stateEstimateZ.ratePitch,stateEstimateZ.rateYaw
69530,29,53,9796,3767536641,0,2,0
69630,40,-2,9785,3765440513,-3,0,3
69730,4,-99,9811,3762293761,0,1,-2
69830,12,-165,9789,3759148033,-2,3,0
69930,-24,-119,9794,3761244161,0,1,0
70030,-25,-80,9799,3762291713,0,-2,1
70130,-11,-28,9798,3764389889,-4,0,0
70230,6,-21,9826,3765439489,1,0,-1
70330,-26,32,9805,3767534593,0,-4,3
70430,45,-84,9819,3762294785,0,4,-1
70533,64,-253,9749,3762293761,24,21,14
70630,-61,-2,10125,3763341314,13,-4,60
70733,35,502,9795,3768058887,-7,77,93
70833,-257,-124,10461,3224900618,1077,622,-24
70931,-306,-966,11050,3254259721,-586,-160,-34
71033,-109,-659,11479,3244819464,1,-53,-115
71131,-179,-217,11109,3231186948,-538,-28,-77
71230,63,393,10645,3767539716,-523,-201,42
71330,207,796,10059,3782224902,-185,-249,55
71430,348,871,9603,3784326151,104,-61,22
71530,302,525,8981,3782232072,131,71,-9
71630,300,349,8915,3773841415,130,27,-28
71730,171,129,8830,3766499335,184,130,-1
71830,152,-52,8930,3760203783,99,150,5
71930,2,-149,9308,3225425926,159,88,10
72030,-119,-236,9408,3228567558,74,87,4
72130,-225,-599,9148,3231188998,18,83,-6
72230,-190,-254,9627,3230142470,-11,17,-7
72330,-252,-22,9725,3228045318,-57,-60,3
72430,-270,164,9955,3226993670,-63,-56,6
72530,-163,-69,9985,3223324678,24,-100,10
72631,51,-58,9701,3222280198,-88,14,-14
72730,25,16,9564,3760198662,-87,95,-8
72830,-130,-13,9419,3761766405,70,-158,-23
72930,404,-68,9451,3223341060,31,-164,-10
73030,552,-64,10017,3223346180,187,-146,-7
73130,384,-77,10677,3226491908,-36,-1,-6
73230,400,-242,10246,3227540484,-41,55,-6
73330,450,-149,9669,3224391684,-12,58,-3
73430,206,31,9551,3224389636,-83,95,-6
73530,117,45,9683,3222289411,-22,102,1
73630,-32,73,9564,3760202755,-91,387,-4
73730,-382,131,9016,3763867651,-92,234,-25
73830,-799,124,9394,3767024642,107,-337,0
73930,35,15,10689,3758110722,89,-348,17
74030,536,-65,10678,3224397826,141,-400,1
74130,721,0,10275,3226501122,34,-41,-16
74230,549,-132,9755,3226499074,-61,224,-5
74330,107,-89,9419,3224393729,-58,208,18
74430,-92,-110,9581,3222284290,-79,322,18
74530,-264,145,9322,3759145986,-136,298,-6
74630,-761,362,9101,3763876866,-63,336,-2
74730,-955,128,9363,3765983234,54,134,-15
74830,-1178,-63,9856,3764937730,70,-339,6
74930,-739,169,10431,3760736258,60,-162,2
75030,-484,44,10996,3224899586,120,-474,-7
75130,-402,-218,10492,3224373249,38,-141,-18
75230,-271,-250,9672,3225423873,-36,112,13
75330,-353,-80,9565,3224896513,-31,176,3
75430,-456,-102,9244,3223853057,-19,149,0
75530,-747,-158,9630,3222811648,-80,169,0
75630,-928,-233,9763,3758640129,-40,55,22
75730,-760,-65,9730,3221770240,60,17,-1
75830,-801,187,9871,3221771264,-7,8,11
75930,-596,169,9711,3221772289,-46,8,20
76030,-955,20,9904,3759690753,-4,-37,7
76130,-857,-194,9766,3760737281,-86,-2,-15
76230,-639,-130,9770,3760736257,33,-75,-24
76330,-679,-49,9781,3760734208,-55,3,0
76430,-601,-62,9766,3761781248,22,-111,-14
76530,-363,-135,9587,3759677440,-35,-55,-1
76630,-498,239,9695,3761776129,8,12,-32
76730,-527,349,9819,3761777153,-33,-55,31
76830,-615,130,9488,3758628865,-85,-39,54
76930,-316,15,9271,3760721922,198,-238,34
77030,3,100,8172,3223326723,-373,295,-41
77130,-424,188,7374,3771216899,287,150,-15
77230,-370,-73,7465,3761781761,17,-475,-71
77330,-23,4,8423,3223326209,107,20,-20
77430,150,-336,10322,3225428481,289,-122,28
77530,-89,-286,6249,3240101888,580,536,69
77630,12522,17902,-18949,3270007810,-13654,-10083,-304
77730,260,860,4477,3302590480,-2045,-1721,-33
77833,358,44,-467,3231715343,492,-825,740
77932,-117,-155,9855,3225425940,-10,3,56
78032,-48,-97,9616,3225425940,-2,-3,-15
78132,-85,145,9794,3760199700,9,6,-62
78231,-85,115,9814,3761249300,0,0,-13
78331,-135,11,9798,3760200724,-5,22,-30
78431,140,-29,9877,3760199700,7,-8,4
78531,9,0,9828,3762295828,-1,2,-11
78630,94,-10,9820,3761250324,3,0,-2
78730,-59,-13,9826,3761247252,1,0,2
78830,-31,-30,9819,3760199700,-2,0,-3
78930,19,43,9809,3763347476,-2,-3,0
79030,26,-35,9824,3761250324,2,6,0
79130,20,-15,9818,3761250324,4,-6,0
79230,18,-25,9829,3761250325,0,3,-5
79330,-74,-30,9802,3761247252,0,1,0
79430,-82,-121,9822,3222278164,1,-2,1
79530,-13,-45,9793,3761248276,0,-1,0
79630,-39,33,9814,3763345428,3,0,-1
79730,-60,48,9827,3764392980,-1,2,3
79830,-33,53,9819,3764394004,-2,1,0
79930,-69,45,9814,3764392980,-3,1,2
80030,-79,34,9816,3764391956,-2,2,0
80130,-62,-31,9833,3761247252,-1,1,2
80230,-36,30,9805,3762296852,-1,-4,-3
80330,-64,62,9835,3764392980,0,3,-1
80430,-53,-26,9832,3761248276,4,4,-1
80530,-1,12,9830,3762297876,1,-2,0
80630,-6,-114,9797,3222281236,0,0,-4
80730,-73,-48,9810,3760198676,0,3,-1
80830,-49,-24,9829,3761248276,0,-1,2
80930,-49,25,9809,3763344404,2,-2,-2
81030,-3,-1,9811,3762297876,0,0,0
81130,-3,-27,9812,3761249300,0,0,2
81230,-46,-52,9822,3761248276,-2,-1,-1
81330,2,31,9804,3763347476,0,0,0
81430,7,44,9818,3764395028,-2,-3,0
81530,35,-14,9800,3761251348,0,-2,2
81630,49,-98,9806,3758105621,0,0,1
81730,29,-99,9822,3758104597,0,-1,-2
81830,37,-37,9812,3760201749,0,-4,-1
81930,25,-64,9797,3760202773,0,0,0
82030,37,-50,9805,3760201749,-1,2,-3
82130,31,-65,9818,3760202773,2,-2,-5
82230,14,-35,9802,3761249301,0,3,1
82330,9,-48,9829,3759153173,-1,1,0
82430,-6,-33,9808,3760201749,-2,-2,0
82530,219,172,9677,3763349525,7,-9,56
82630,-119,90,9566,3766490132,-73,47,-137
82730,-84,140,10771,3763339282,371,239,5
82830,-335,-218,11298,3236442131,-109,210,33
82930,-657,-294,10377,3234348052,-484,-88,43
83030,-989,203,8979,3764940821,30,-244,-14
83130,-344,188,9727,3763875859,-251,201,-9
83230,-96,559,10768,3768583186,99,-661,-23
83330,141,102,10494,3765450769,-65,-382,0
83430,552,275,10385,3765464081,56,-414,5
83530,920,264,10250,3765473296,97,-42,-20
83630,715,282,10356,3764422671,62,207,-28
83730,248,7,9520,3761261582,98,-365,-50
83830,357,-60,8772,3758129163,40,512,-79
83930,415,223,9850,3222294536,57,260,-54
84030,-134,-116,10509,3223324679,-9,281,-23
84130,-436,69,9746,3764921350,-784,1145,-28
84230,-1209,285,9026,3774391302,86,554,-38
84330,-1285,261,8571,3767054340,338,-421,-42
84430,-1088,-25,8521,3759709188,196,-121,-8
84530,-878,-62,9521,3224925188,-193,-46,7
84630,-647,-64,10150,3759690756,-228,-341,5
84730,-467,31,10144,3767021573,95,-361,20
84830,-289,-199,9577,3762814981,182,-229,2
84930,186,-354,9802,3225427973,394,-270,4
85030,350,-475,10360,3236969477,318,-105,1
85130,93,-440,9688,3233816580,-150,747,-22
85230,-466,-507,9156,3238541315,-21,296,-6
85330,57,-188,8714,3233813507,-114,-533,12
85430,-102,-33,9271,3228569603,-116,-151,-18
85530,-6,-159,9669,3225421826,-159,351,-8
85630,-223,11,10293,3759673347,-158,311,17
85730,-599,415,10511,3762828291,-81,233,-6
85830,-579,236,10024,3765981187,-86,193,9
85930,-861,344,9980,3768083459,-39,112,-24
86030,-677,259,9811,3768085506,11,51,-18
86130,-799,534,10012,3768086530,-38,23,-11
86230,-748,216,10020,3767037954,16,5,-10
86330,-471,128,10048,3761789953,91,-181,-21
86430,-383,225,10294,3759686657,117,-181,-21
86530,-6,24,9688,3221760001,-298,189,-35
86630,-386,204,9393,3765978113,106,-5,-23
86733,-345,112,9382,3763879424,12,-304,-11
86831,-203,-105,9393,3761775105,57,-124,-2
86931,-36,-118,9828,3758625281,122,-45,-18
87031,-6,-65,10124,3224898049,56,-26,-13
87131,20,-250,9631,3225945601,-36,28,0
87231,85,-50,9946,3226994176,-11,26,-7
87331,-89,-109,9883,3225945600,-12,-13,-4
87431,115,304,10054,3222799872,-14,-38,0
87531,136,260,9913,3222275072,-77,-71,-1
87631,182,257,10118,3758098432,-39,-79,3
87731,327,-23,9911,3760199681,-18,-36,-15
87831,136,-36,9668,3760202752,-29,132,-22
87930,190,117,9792,3761249792,81,-387,-10
88030,456,65,9878,3760207361,-68,-2,4
88130,450,383,9538,3760204288,-6,279,-6
88230,591,11,9903,3223343616,90,-258,2
88330,392,-276,9960,3224394240,106,-249,4
88430,740,-180,9862,3224396288,-26,70,-8
88530,732,46,9718,3223346688,-67,105,-6
88630,533,58,9857,3223343617,-33,64,-12
88730,384,-60,9685,3758113281,-30,78,-8
88830,313,-35,9763,3759158785,-39,43,19
88930,219,-18,9824,3759156736,-38,110,8
89030,241,276,9860,3760203776,-115,95,18
89130,130,197,9995,3759154177,27,-54,1
89230,-10,90,10053,3760201729,-28,41,13
89330,153,-141,9501,3758105602,-4,-15,8
89430,137,-65,9278,3222283266,-42,11,4
89530,81,186,8692,3222284289,21,-32,0
89630,-5,-106,8154,3221233665,51,-20,12
89730,232,-32,7697,3222281217,-12,53,-17
89830,-84,-6,7793,3222279169,78,100,2
89930,-246,-74,8782,3223325697,46,57,-10
90030,-126,-160,9998,3224895489,-12,80,49
90130,-242,144,11062,3222801411,20,-19,53
90230,-75,-222,5149,3230139398,392,-51,170
90330,-130,-354,3460,3255833613,1010,-253,205
90430,-181,173,1843,3782764058,-472,678,-1193
90530,1989,1117,11738,3758631450,-70,16,48
90630,156,251,9875,3763877402,-161,-136,-15
90730,-156,-103,9948,3761780250,17,24,-25
90830,-119,-47,10010,3759682074,-39,-6,35
90930,0,104,9977,3759680026,-41,-26,68
91030,70,30,10029,3761778202,15,39,11
91130,-146,-86,9681,3761778202,-13,-20,-24
