timestamp,stabilizer.roll,stabilizer.pitch,stabilizer.yaw,stabilizer.thrust,stabilizer.rtStab,stabilizer.intToOut
308292,-1.7748074531555176,-0.27160969376564026,-4.432239055633545,0.0,989.70458984375,527
308392,-1.6669102907180786,-0.3707689940929413,-4.40187406539917,0.0,989.70458984375,537
308491,-1.6938321590423584,-0.3244316875934601,-4.395065784454346,0.0,989.70458984375,511
308592,-1.7376854419708252,-0.21728426218032837,-4.384181022644043,0.0,989.70458984375,526
308692,-1.7804819345474243,-0.3210151195526123,-4.396595001220703,0.0,989.70458984375,523
308791,-1.7105307579040527,-0.3183457851409912,-4.420203685760498,0.0,989.70458984375,507
308892,-1.8064205646514893,-0.5322339534759521,-4.418570518493652,0.0,999.9999389648438,527
308992,-1.9620636701583862,-0.28464168310165405,-4.42157506942749,0.0,999.9999389648438,519
309092,-1.8863959312438965,-0.43807950615882874,-4.38605260848999,0.0,999.9999389648438,526
309191,-1.733451247215271,-0.3882489800453186,-4.398244380950928,0.0,999.9999389648438,515
309291,-1.7304832935333252,-0.39148351550102234,-4.434449195861816,35987.51953125,999.9999389648438,506
309391,-1.0222736597061157,-1.0848734378814697,-4.687800407409668,36306.5078125,999.9999389648438,511
309491,-0.32668906450271606,-1.9189289808273315,-4.896176338195801,37870.3203125,1000.0000610351562,507
309592,0.44705942273139954,-0.4754330515861511,-4.7554240226745605,40674.62890625,1000.0000610351562,513
309691,1.3204636573791504,5.303008079528809,-3.332266092300415,43970.1484375,1000.0000610351562,524
309791,-0.27823078632354736,2.1858386993408203,-0.6077740788459778,45861.8125,1000.0000610351562,527
309891,1.0883716344833374,1.0670770406723022,2.1642005443573,45592.4375,1000.0000610351562,525
309991,-0.8035780787467957,-1.5821051597595215,3.9446752071380615,44379.359375,1000.0000610351562,517
310091,-0.68844074010849,-2.0476527214050293,4.919707775115967,41949.8671875,998.3333129882812,517
310191,-0.3393849730491638,-2.600714683532715,5.159718990325928,39230.8515625,998.3333129882812,518
310291,-0.6325667500495911,-3.2494475841522217,4.760389804840088,37852.92578125,998.3333129882812,529
310391,-0.616156280040741,-3.318967819213867,4.278079986572266,37526.09765625,998.3333129882812,517
310491,-0.5874135494232178,-3.6683411598205566,3.8217825889587402,38085.515625,998.3333129882812,517
310591,-0.7792041301727295,-3.668678045272827,3.495143413543701,38857.65625,998.3333129882812,518
310691,-0.12723901867866516,-3.1672163009643555,3.2208003997802734,36747.9765625,999.9999389648438,518
310791,0.18107008934020996,-1.461121916770935,3.091460943222046,40999.4765625,999.9999389648438,520
310891,-0.5875186920166016,-1.028852939605713,3.0657598972320557,42185.61328125,999.9999389648438,524
310991,-1.531828761100769,-0.4601585268974304,3.1823601722717285,40729.77734375,999.9999389648438,516
311091,-1.5506227016448975,0.38335859775543213,3.244520902633667,39736.03515625,999.9999389648438,517
311192,-1.1846407651901245,0.9976258873939514,3.146190643310547,37590.07421875,1000.0,508
311292,1.26953125,2.0870041847229004,2.947514057159424,37554.84375,1000.0,507
311391,2.564727544784546,3.333383560180664,2.6866202354431152,39284.921875,1000.0,522
311491,2.932398557662964,3.6022987365722656,2.4556736946105957,40918.26953125,1000.0,526
311591,2.530898094177246,2.308790445327759,2.4309728145599365,41736.54296875,1000.0,524
311692,2.0916078090667725,0.5562146902084351,2.6014249324798584,43545.890625,1000.0,523
311792,-0.4218448996543884,-4.7253570556640625,2.8528239727020264,41223.5625,998.3333129882812,538
311891,-0.3219294548034668,-5.860050201416016,2.867766857147217,41777.04296875,998.3333129882812,511
311992,1.4052295684814453,-5.1140055656433105,2.759202241897583,38797.49609375,998.3333129882812,519
312092,1.9021164178848267,-3.511730670928955,2.4577255249023438,40507.53125,998.3333129882812,523
312191,1.192325234413147,-2.825392484664917,2.2995522022247314,39633.93359375,998.3333129882812,525
312291,0.47157517075538635,-2.0354394912719727,2.0830495357513428,39465.77734375,998.3333129882812,541
312392,-0.08168777823448181,-1.5384453535079956,1.8485827445983887,38951.5703125,999.9999389648438,529
312491,-0.7407456040382385,-1.6165212392807007,1.6300700902938843,39962.765625,999.9999389648438,532
312591,-1.0520490407943726,-1.7805566787719727,1.4639643430709839,40110.90625,999.9999389648438,514
312691,-1.152819275856018,-1.9446115493774414,1.3544646501541138,39734.2734375,999.9999389648438,517
312791,-1.0027598142623901,-2.0865654945373535,1.3493419885635376,39747.84375,999.9999389648438,510
312891,-0.6959842443466187,-1.9775553941726685,1.3326870203018188,40191.43359375,999.9999389648438,518
312991,-0.30154135823249817,-1.7385711669921875,1.3315658569335938,40008.9609375,1000.0000610351562,506
313091,-0.029010294005274773,-1.3611178398132324,1.3561992645263672,40339.8984375,1000.0000610351562,512
313191,0.20824585855007172,-0.9291408061981201,1.3926982879638672,40183.94140625,1000.0000610351562,516
313291,0.272902250289917,-0.48142072558403015,1.3975510597229004,39643.98046875,1000.0000610351562,510
313392,0.31313708424568176,-0.2000560760498047,1.3731155395507812,39345.74609375,1000.0000610351562,531
313492,0.18996047973632812,0.2890562415122986,1.2635962963104248,40359.1484375,1000.0,529
313591,-0.12747912108898163,0.5333420634269714,1.1636708974838257,40543.1484375,1000.0,511
313692,-0.38099151849746704,0.8782240152359009,1.1071571111679077,41517.1328125,1000.0,538
313791,-0.4650232791900635,1.0231629610061646,1.1197713613510132,42014.328125,1000.0,511
313892,-0.5209192633628845,1.2317057847976685,1.1636667251586914,41422.46875,1000.0,525
313991,-0.37623831629753113,0.61551833152771,1.1163935661315918,39839.19921875,1000.0,532
314092,-1.1366081237792969,2.955397605895996,0.9855630397796631,39244.97265625,998.3333129882812,545
314192,-1.2393834590911865,3.8958580493927,0.8527511954307556,39098.73046875,998.3333129882812,519
314292,-1.0539427995681763,4.28425407409668,0.6286847591400146,39033.734375,998.3333129882812,514
314394,-0.9469836950302124,4.2935614585876465,0.3537057638168335,32550.994140625,998.3333129882812,516
314494,-1.507836103439331,-1.8324989080429077,0.11990372091531754,35391.75,998.3333129882812,519
314594,-0.7148038148880005,-2.243415594100952,0.12117859721183777,42134.26171875,1000.0000610351562,506
314693,-0.025604091584682465,-1.5991454124450684,0.07360418885946274,44255.171875,1000.0000610351562,510
314793,0.18088573217391968,-0.05933254212141037,0.29844236373901367,42973.4140625,1000.0000610351562,510
314893,0.5991402268409729,1.6388574838638306,0.5431761741638184,40630.1953125,1000.0000610351562,531
314993,0.7682386636734009,3.636293888092041,0.6509534120559692,40929.34765625,1000.0000610351562,517
315093,0.820231556892395,5.303325176239014,0.5579545497894287,40002.8203125,1000.0000610351562,517
315192,0.42521587014198303,6.515563488006592,0.42473798990249634,39296.53125,1000.0,505
315292,0.06815234571695328,6.654876232147217,0.3310328722000122,41034.140625,1000.0,505
315392,-0.2424556463956833,6.024554252624512,0.22773124277591705,40616.8125,1000.0,506
315492,-0.48846784234046936,4.741673946380615,0.12297940254211426,39381.4921875,1000.0,505
315591,-0.7270002961158752,3.036222457885742,-0.029284324496984482,36116.06640625,1000.0,521
315691,-0.7464515566825867,1.5706946849822998,-0.21027341485023499,34778.359375,1000.0,518
315792,-0.811114490032196,0.07874055206775665,-0.1399267315864563,32515.8359375,999.9999389648438,518
315891,-0.4336715638637543,-0.9100538492202759,-0.06129541993141174,32655.005859375,999.9999389648438,522
315991,0.057223301380872726,-1.8109424114227295,-0.06671727448701859,43213.83203125,999.9999389648438,542
316092,1.3869905471801758,-2.5090363025665283,0.034543510526418686,47867.94921875,999.9999389648438,540
316192,0.9646939635276794,-1.4762097597122192,0.45376700162887573,39742.53125,999.9999389648438,507
316291,0.7962744832038879,2.3375582695007324,0.7919008731842041,0.0,999.9999389648438,529
316391,3.9977333545684814,-1.5919573307037354,3.2674100399017334,0.0,998.33056640625,514
316491,-1.0078752040863037,-1.6435737609863281,5.499446392059326,0.0,998.33056640625,525
316591,-0.7815531492233276,1.6164274215698242,2.1411986351013184,0.0,998.33056640625,507
316691,-0.790303111076355,0.6373395323753357,4.047115802764893,0.0,998.33056640625,508
316791,-0.5575471520423889,0.4830838441848755,3.988816976547241,0.0,998.33056640625,512
316891,0.41052043437957764,-0.1319625973701477,3.995699644088745,0.0,998.33056640625,509
316991,0.4095315933227539,-0.1508217751979828,4.04145622253418,0.0,999.9999389648438,506
317091,0.21082034707069397,-0.06817866116762161,4.062128067016602,0.0,999.9999389648438,506
317191,0.4551272392272949,-0.13397939503192902,4.09735107421875,0.0,999.9999389648438,511
317291,0.25406646728515625,-0.18361185491085052,4.1083221435546875,0.0,999.9999389648438,506
317391,0.1464160829782486,-0.10348010808229446,4.09384822845459,0.0,999.9999389648438,511
317491,0.04486873373389244,-0.1721712350845337,4.09250545501709,0.0,999.9999389648438,506
317591,-0.030816935002803802,-0.21022233366966248,4.094886779785156,0.0,999.9999389648438,506
317691,-0.057556185871362686,-0.2447052299976349,4.107051372528076,0.0,999.9999389648438,507
317791,-0.05859215557575226,-0.21150386333465576,4.079851150512695,0.0,999.9999389648438,509
317891,-0.12828247249126434,-0.22389401495456696,4.085934638977051,0.0,999.9999389648438,510
317991,-0.2593219578266144,-0.2914058566093445,4.081457138061523,0.0,999.9999389648438,506
318091,-0.23346878588199615,-0.25269752740859985,4.089779376983643,0.0,999.9999389648438,507
318191,0.017994269728660583,-0.06527651846408844,4.066381931304932,0.0,999.9999389648438,515
318291,-0.028932182118296623,-0.24258111417293549,4.076550483703613,0.0,999.9999389648438,530
318391,-0.13109084963798523,-0.28935033082962036,4.052672863006592,0.0,999.9999389648438,521
318491,-0.2056737095117569,-0.2895759046077728,4.0319719314575195,0.0,999.9999389648438,513
318591,-0.21961690485477448,-0.28904664516448975,4.039178371429443,0.0,999.9999389648438,520
318691,-0.2312542051076889,-0.2821388840675354,4.053410530090332,0.0,999.9999389648438,519
318791,-0.08908453583717346,-0.24752500653266907,4.068039894104004,0.0,998.3333129882812,521
318891,-0.16242776811122894,-0.2643378674983978,4.0713653564453125,0.0,998.3333129882812,520
318991,-0.2879001200199127,-0.28157877922058105,4.0702409744262695,0.0,998.3333129882812,520
319091,-0.24432171881198883,-0.41710248589515686,4.075476169586182,0.0,998.3333129882812,520
319191,-0.3040003180503845,-0.29376354813575745,4.074946880340576,0.0,998.3333129882812,524
319291,-0.26258155703544617,-0.33573150634765625,4.089344024658203,0.0,998.3333129882812,519
319394,-0.2744936943054199,-0.24946175515651703,4.097197532653809,0.0,1000.0,510
319494,-0.23590674996376038,-0.2954999804496765,4.082818984985352,0.0,1000.0,507
319594,-0.3157167434692383,-0.23380973935127258,4.105224132537842,0.0,1000.0,506
319693,-0.2680967152118683,-0.26821714639663696,4.135041236877441,0.0,1000.0,521
319794,-0.2592536509037018,-0.3030058443546295,4.135063171386719,0.0,1000.0,506
319894,-0.36311104893684387,-0.20687401294708252,4.108809471130371,0.0,1000.0,509
319993,-0.13992679119110107,-0.3683345317840576,4.095118045806885,0.0,1000.0000610351562,528
320093,-0.24722228944301605,-0.2788689434528351,4.136533260345459,0.0,1000.0000610351562,525
320193,-0.2704719603061676,-0.3224695920944214,4.112839698791504,0.0,1000.0000610351562,525
320292,-0.1976243257522583,-0.3129851520061493,4.1222639083862305,0.0,1000.0000610351562,512
320392,-0.25164923071861267,-0.2649313807487488,4.134773254394531,0.0,1000.0000610351562,518
320492,-0.22551587224006653,-0.38402414321899414,4.130608558654785,0.0,1000.0000610351562,508
320592,-0.24493764340877533,-0.273426353931427,4.087177276611328,0.0,1000.0000610351562,508
320692,-0.1435989886522293,-0.37258464097976685,4.083224773406982,0.0,1000.0000610351562,519
320792,0.012182940728962421,-0.4205641448497772,4.120379447937012,0.0,1000.0000610351562,522
320892,0.06161125749349594,-0.5012388229370117,4.131534099578857,0.0,1000.0000610351562,523
320992,0.023213494569063187,-0.48029765486717224,4.164613246917725,0.0,1000.0000610351562,536
321092,0.04474960267543793,-0.45803529024124146,4.150039196014404,0.0,1000.0000610351562,526
321192,0.04761316254734993,-0.4226526618003845,4.134067535400391,0.0,998.3333129882812,523
321292,0.00494257640093565,-0.44375964999198914,4.166143894195557,35667.0234375,998.3333129882812,522
321393,-0.07974592596292496,-0.3425048291683197,4.232733726501465,35340.1953125,998.3333129882812,513
321494,0.1036929339170456,-0.25781580805778503,4.699928283691406,41955.37109375,998.3333129882812,511
321594,-0.9437612295150757,0.8281134963035583,5.389235019683838,44229.34375,998.3333129882812,505
321691,0.4514061510562897,0.22547480463981628,6.231913089752197,38469.8984375,998.3333129882812,511
321791,-1.2896640300750732,-0.3513704836368561,7.136609077453613,32673.34765625,1000.0000610351562,510
321893,-0.5691095590591431,5.0587568283081055,7.659398555755615,35789.8046875,1000.0000610351562,512
321993,-2.0738048553466797,1.356370449066162,7.241589069366455,35177.63671875,1000.0000610351562,515
322093,-1.3488872051239014,-1.8644903898239136,6.744655609130859,44805.7890625,1000.0000610351562,517
322193,-0.3846285939216614,-3.6571409702301025,6.444964408874512,48561.9765625,1000.0000610351562,518
322293,-0.3111615478992462,-2.902329206466675,6.6936869621276855,47436.22265625,1000.0000610351562,526
322392,-0.23194552958011627,-1.3001435995101929,6.884931564331055,43725.7578125,1000.0000610351562,529
322492,0.5297155380249023,-0.2091863453388214,6.4394049644470215,42243.0625,1000.0000610351562,524
322592,0.02090054377913475,0.3917737305164337,5.598514080047607,39186.4765625,1000.0000610351562,517
322692,-0.12715551257133484,1.0671322345733643,4.621800422668457,37350.3828125,1000.0000610351562,528
322792,-0.004241050686687231,1.6048458814620972,3.7679452896118164,38655.6328125,1000.0000610351562,522
322892,-0.16874311864376068,1.6888797283172607,3.1052358150482178,38147.15625,998.33056640625,516
322992,-0.13445454835891724,1.5902248620986938,2.7465476989746094,44817.24609375,998.33056640625,508
323091,0.5943146347999573,0.7705857753753662,2.8652682304382324,45398.17578125,998.33056640625,592
323191,1.8416839838027954,-1.4097940921783447,3.3974428176879883,34431.84375,998.33056640625,591
323291,-3.098426103591919,6.689820766448975,3.516169786453247,35102.3359375,998.33056640625,592
323391,-2.8768348693847656,6.59713888168335,3.0273427963256836,33877.515625,998.33056640625,607
323492,-2.7024729251861572,1.8066619634628296,2.566824436187744,31840.55859375,999.9999389648438,506
323591,-1.5252854824066162,-4.709659576416016,2.293801784515381,35455.421875,999.9999389648438,595
323691,0.31975364685058594,-6.08380651473999,2.1966054439544678,46007.8515625,999.9999389648438,591
323791,2.3333654403686523,-6.572411060333252,2.564830780029297,50885.05859375,999.9999389648438,598
323891,5.1037516593933105,-5.744637966156006,3.445167064666748,39015.37109375,999.9999389648438,593
323991,-0.6985595226287842,2.639488697052002,3.4903974533081055,36115.4453125,999.9999389648438,592
324091,-1.5199944972991943,10.248054504394531,3.1347262859344482,38804.328125,1000.0000610351562,595
324191,-1.8564388751983643,9.569141387939453,2.1925361156463623,31672.341796875,1000.0000610351562,603
324291,-2.6146271228790283,3.423919200897217,1.84783136844635,36663.7890625,1000.0000610351562,606
324391,-1.348500370979309,0.9059668183326721,1.7267123460769653,43452.7734375,1000.0000610351562,598
324492,-0.23647530376911163,0.5306650996208191,1.4840599298477173,44313.35546875,1000.0000610351562,519
324591,-0.6117618680000305,0.8488688468933105,1.730962872505188,42521.9453125,1000.0000610351562,591
324691,-0.7683053016662598,1.909645915031433,1.912549376487732,40593.875,999.9999389648438,601
324791,-0.6525893807411194,3.147925853729248,1.7465108633041382,40108.6953125,999.9999389648438,619
324891,-1.10255765914917,4.152663707733154,1.3160719871520996,40133.703125,999.9999389648438,737
324991,-0.34017208218574524,4.899062156677246,0.8329890966415405,39894.52734375,999.9999389648438,738
325091,-0.6190255880355835,4.899650573730469,0.5667676329612732,39690.25390625,999.9999389648438,741
325191,-1.0677134990692139,4.0823655128479,0.40344029664993286,40873.296875,999.9999389648438,595
325291,-0.8377033472061157,3.5451059341430664,0.5976861119270325,42590.25,998.3333129882812,742
325391,-0.15880396962165833,2.7514238357543945,0.48737186193466187,43737.52734375,998.3333129882812,735
325491,-0.01022646389901638,2.3462002277374268,1.0925196409225464,41485.70703125,998.3333129882812,738
325591,-2.2959187030792236,3.0278213024139404,1.289157748222351,37771.48046875,998.3333129882812,734
325691,-2.4613683223724365,0.3548714816570282,0.9387092590332031,34050.421875,998.3333129882812,740
325791,-1.8967547416687012,-1.824346661567688,0.8144920468330383,37858.8671875,998.3333129882812,737
325891,-0.9140584468841553,-3.1582038402557373,0.6240077614784241,40753.31640625,1001.6666259765625,594
325991,0.37198227643966675,-3.1004621982574463,0.3495139181613922,40708.66015625,1001.6666259765625,733
326091,2.652517557144165,-2.103020429611206,-0.023007292300462723,39905.12109375,1001.6666259765625,734
326191,4.020858287811279,-0.7587153315544128,-0.014244535937905312,40265.5234375,1001.6666259765625,734
326292,4.5889692306518555,0.49982765316963196,0.19093666970729828,41350.62109375,1001.6666259765625,594
326391,4.040707111358643,1.1435476541519165,-0.08727430552244186,41262.1015625,1001.6666259765625,760
326491,2.66642689704895,1.0499130487442017,-0.09516485035419464,41402.99609375,998.3333129882812,756
326591,1.3448824882507324,0.6035845279693604,0.23686283826828003,41021.9140625,998.3333129882812,743
326691,-2.2368340492248535,-0.09213970601558685,0.5886049270629883,41084.17578125,998.3333129882812,532
326791,-6.0075178146362305,-1.2182461023330688,0.6505957841873169,39542.33984375,998.3333129882812,742
326891,-8.39828109741211,-1.8832002878189087,0.33863943815231323,40117.1796875,998.3333129882812,519
326991,-9.144685745239258,-2.7424423694610596,0.33914604783058167,40167.40625,998.3333129882812,528
327091,-7.822132110595703,-2.9406027793884277,0.44467222690582275,38830.9296875,998.3333129882812,524
327191,-5.325167655944824,-3.076611280441284,0.13586629927158356,39092.02734375,998.3333129882812,519
327291,-2.140713691711426,-2.929028272628784,0.03378409519791603,38464.359375,998.3333129882812,519
327391,1.058019995689392,-2.42807936668396,-0.030883032828569412,41042.10546875,998.3333129882812,518
327491,2.740126848220825,-2.299546241760254,0.01564621739089489,40393.6953125,998.3333129882812,526
327591,3.819807529449463,-2.0960323810577393,0.09933029860258102,40367.609375,998.3333129882812,529
327691,4.258693218231201,-2.0413432121276855,0.006695101037621498,38856.62890625,999.9999389648438,533
327791,4.826475620269775,-1.6966619491577148,-0.11541299521923065,40618.6796875,999.9999389648438,520
327891,3.3943421840667725,-2.0483920574188232,-0.2281336933374405,40993.09375,999.9999389648438,521
327991,2.2605044841766357,-1.8206478357315063,-0.20747056603431702,40027.48046875,999.9999389648438,517
328091,1.3499752283096313,-1.7721580266952515,-0.2823333740234375,39742.37109375,999.9999389648438,518
328191,0.8647382855415344,-1.774998664855957,-0.38128238916397095,37580.296875,999.9999389648438,519
328291,0.6272873878479004,-1.6074090003967285,-0.5302554965019226,35600.6640625,999.9999389648438,517
328391,0.5297291278839111,-1.348878264427185,-0.6482157111167908,33220.375,999.9999389648438,517
328491,0.18001344799995422,-1.007021188735962,-0.6348550319671631,31865.287109375,999.9999389648438,525
328594,0.3333663046360016,-0.9821807146072388,-0.7033313512802124,34314.16796875,999.9999389648438,517
328695,0.30540168285369873,-0.7443972229957581,-1.0100709199905396,38118.59375,999.9999389648438,524
328794,0.5914734601974487,-0.2708328664302826,-1.4035513401031494,41474.6875,999.9999389648438,511
328894,0.5237210392951965,0.10366830974817276,-1.6886714696884155,44155.390625,999.9999389648438,524
328994,0.13165509700775146,0.18527278304100037,-0.9810094237327576,0.0,999.9999389648438,523
329093,-0.8210031986236572,0.8917815089225769,1.9509272575378418,0.0,999.9999389648438,569
329193,-10.673036575317383,-11.253987312316895,-0.44751259684562683,0.0,999.9999389648438,567
329293,-33.316036224365234,-30.6434268951416,-16.58870506286621,0.0,999.9999389648438,573
329393,-18.87200355529785,-27.739227294921875,-14.05045223236084,0.0,1000.0000610351562,576
329493,-6.934082508087158,2.3122549057006836,-3.985320806503296,0.0,1000.0000610351562,567
329593,-2.070030450820923,1.8102352619171143,1.883130669593811,0.0,1000.0000610351562,744
329693,-1.366755723953247,1.0034984350204468,1.6950987577438354,0.0,1000.0000610351562,572
329793,-1.4615527391433716,0.644616425037384,1.6652898788452148,0.0,1000.0000610351562,772
329892,-1.534727931022644,0.5468159914016724,1.6831724643707275,0.0,1000.0000610351562,534
